{
  "restaurants": [
    
    {
      "id": 1,
      "name": "Wynwood Kitchen & Bar",
      "address": "2550 NW 2nd Ave, Miami, FL 33127",
      "description": "Arts District hot spot with indoor-outdoor dining, famous artists' works & live music.",
      "phone": "(305) 722-8959",
      "website": "http://www.wynwoodkitchenandbar.com/",
      "cuisine": "American",
      "lat": 25.801314000000001,
      "long": -80.19929910000002
      
    },
    {
      "id": 2,
      "name": "Jimmy'z Kitchen Wynwood",
      "address": "2700 N Miami Ave, Miami, FL 33127",
      "description": "Known for gourmet sandwiches, this colorful counter-serve cafe also offers salads & global mains.",
      "phone": "(305) 573-1505",
      "website": "http://www.jimmyzkitchen.com/",
      "cuisine": "Latin",
      "lat": 25.802747,
      "long": -80.19537300000002
      
    },
    {
      "id": 3,
      "name": "R House Wynwood",
      "address": "2727 NW 2nd Ave, Miami, FL 33127",
      "description": "Vibrant & funky destination featuring globally-inspired eats, infusion cocktails & an art gallery.",
      "phone": "(305) 576-0201",
      "website": "http://www.rhousewynwood.com/",
      "cuisine": "American",
      "lat": 25.8026808,
      "long": -80.19899750000002
      
    },
    {
      "id": 4,
      "name": "Suviche Wynwood",
      "address": "2751 N Miami Ave, Miami, FL 33127",
      "description": "Buzzy, casual eatery with Japanese & Peruvian fare, such as sushi & ceviche, plus sake, wine & beer.",
      "phone": "(305) 501-5010",
      "website": "http://www.suviche.com/",
      "cuisine": "Asian",
      "lat": 25.802886,
      "long": -80.19479999999999
      
    },
    {
      "id": 5,
      "name": "Joey's Italian Cafe",
      "address": "2506 NW 2nd Ave, Miami, FL 33127",
      "description": "Hip choice for thin-crust pies & more Italian eats in contemporary digs near local art galleries.",
      "phone": "(305) 438-0488",
      "website": "http://joeyswynwood.com/",
      "cuisine": "Italian",
      "lat": 25.8008996,
      "long": -80.19924449999996
      
    },
     {
      "id": 6,
      "name": "Alter",
      "address": "223 NW 23rd St, Miami, FL 33127",
      "description": "Refined New American fare served up in a spare, industrial setting with an open kitchen & a garden.",
      "phone": "(305) 573-5996",
      "website": "http://www.altermiami.com/",
      "cuisine": "American",
      "lat": 25.7996474,
      "long": -80.1995657
      
    },
    {
      "id": 7,
      "name": "Morgans Restaurant",
      "address": "28 NE 29th St, Miami, FL 33137",
      "description": "Updated takes on homey American staples offered in an unpretentious old house with a covered porch.",
      "phone": "(305) 573-9678",
      "website": "http://www.themorgansrestaurant.com/",
      "cuisine": "American",
      "lat": 25.803808,
      "long": -80.19477369999998
      
    },
    {
      "id": 8,
      "name": "Beaker & Gray",
      "address": "2637 N Miami Ave, Miami, FL 33127",
      "description": "Global-inspired fare & inventive cocktails served in a former factory space with rustic accents.",
      "phone": "(305) 699-2637",
      "website": "http://beakerandgray.com/",
      "cuisine": "American",
      "lat": 25.802335,
      "long": -80.19473299999999
      
    },
    {
      "id": 9,
      "name": "Kyu",
      "address": "251 NW 25th St, Miami, FL 33127",
      "description": "Modern Asian-style eatery offering grilled meats & sashimi, plus cocktails.",
      "phone": "(786) 577-0150",
      "website": "http://kyumiami.com/",
      "cuisine": "Asian",
      "lat": 25.8008811,
      "long": -80.20018529999999
      
    },
    {
      "id": 10,
      "name": "GKBistronomie",
      "address": "218 NW 25th St, Miami, FL 33127",
      "description": "Global-inspired Peruvian seafood & pisco drinks served in chic space with open kitchen & courtyard.",
      "phone": "(786) 477-5151",
      "website": "http://gkbistronomie.com/",
      "cuisine": "Latin",
      "lat": 25.8005369,
      "long": -80.19955399999998
      
    },
    {
      "id": 11,
      "name": "The Butcher Shop Beer Garden & Grill",
      "address": "165 NW 23rd St, Miami, FL 33127",
      "description": "Beer garden-style hangout featuring artisanal meat dishes, craft brews & a butcher shop.",
      "phone": "(305) 846-9120",
      "website": "http://butchershopmiami.com/tbs/",
      "cuisine": "American",
      "lat": 25.7993288,
      "long": -80.19811429999999
      
    },
    {
      "id": 12,
      "name": "Coyo Taco",
      "address": "2300 NW 2nd Ave, Miami, FL 33127",
      "description": "Upbeat spot (with a hidden bar) for Mexican street food & margaritas made with house-brand tequila.",
      "phone": "(305) 573-8228",
      "website": "http://coyo-taco.com/",
      "cuisine": "Mexican",
      "lat": 25.7996904,
      "long": -80.19931589999999
      
    },
    {
      "id": 13,
      "name": "Wynwood Diner",
      "address": "2601 NW 2nd Ave, Miami, FL 33127",
      "description": "Diner with Euro charm serving all-day breakfast & modernized classics, plus cocktails & craft beer.",
      "phone": "(305) 747-7888",
      "website": "http://wynwooddiner.com/",
      "cuisine": "American",
      "lat": 25.8015402,
      "long": -80.19900439999998
      
    },
    {
      "id": 14,
      "name": "Kush",
      "address": "2003 N Miami Ave, Miami, FL 33127",
      "description": "Eco-friendly, art-filled gastropub offering scratch-made fare, wine & an eclectic craft beer list.",
      "phone": "(305) 576-4500",
      "website": "http://kushwynwood.com/",
      "cuisine": "American",
      "lat": 25.7958167,
      "long": -80.19470139999999
      
    },
    {
      "id": 15,
      "name": "Dr Smood - Wynwood Organic Cafe",
      "address": "2230 NW 2nd Ave, Miami, FL 33127",
      "description": "Health-conscious cafe offering organic salads, smoothies & coffee drinks in a trendy setting.",
      "phone": "(786) 334-4420",
      "website": "http://drsmood.com/cafes/wynwood-fl/",
      "cuisine": "Organic",
      "lat": 25.7983255,
      "long": -80.1991443
      
    },
    {
      "id": 17,
      "name": "Brick",
      "address": "187 NW 28th St, Miami, FL 33127",
      "description": "A 1920s house is the backdrop for a beer garden with craft brews & bourbon, plus a patio & DJs.",
      "phone": "(786) 467-1205",
      "website": "http://www.brickmia.com/",
      "cuisine": "American",
      "lat": 25.8031565,
      "long": -80.19884400000001
      
    },
    {
      "id": 18,
      "name": "Prohibition Restaurant and Speakeasy",
      "address": "3404 N Miami Ave, Miami, FL 33127",
      "description": "Hip speakeasy/eatery with Prohibition-era cocktails, nightlife scene & eclectic comfort food.",
      "phone": "(305) 438-9199",
      "website": "http://www.prohibitionmiami.com/",
      "cuisine": "American",
      "lat": 25.8083854,
      "long": -80.1955203
      
    },
    {
      "id": 19,
      "name": "Jucy Lu",
      "address": "2621 NW 2nd Ave, Miami, FL 33127",
      "description": "At Jucy Lu we juice, cook and create conscious and healthy eating habits.",
      "phone": "(786) 536-2575",
      "website": "http://www.jucylu.com/",
      "cuisine": "Vegetarian",
      "lat": 25.8017691,
      "long": -80.19891669999998
      
    },
    {
      "id": 20,
      "name": "Cafeina",
      "address": "297 NW 23rd St, Miami, FL 33127",
      "description": "Funky Wynwood venue luring local hipsters with live bands, eclectic tapas & a spacious patio.",
      "phone": "(786) 483-7561",
      "website": "http://www.cafeinamiami.com/",
      "cuisine": "European",
      "lat": 25.799629,
      "long": -80.20097799999996
      
    },
    {
      "id": 21,
      "name": "Pride and Joy BBQ",
      "address": "2800 N Miami Ave, Miami, FL 33127",
      "description": "Vibrant honky-tonk fixing up BBQ & other classic Southern eats in a space adorned with beer cans.",
      "phone": "(305) 456-9548",
      "website": "",
      "cuisine": "American",
      "lat": 25.8031719,
      "long": -80.19530509999998
      
    },
    {
      "id": 22,
      "name": "Made in Italy Gourmet",
      "address": "10 NE 27th St, Miami, FL 33137",
      "description": "This rustic hybrid boasts a salumeria with Italian fare, a wine bar & a gourmet market.",
      "phone": "(786) 360-5671",
      "website": "http://www.madeinitalygourmet.com/",
      "cuisine": "Italian",
      "lat": 25.8024642,
      "long": -80.19472380000002
      
    },
    {
      "id": 23,
      "name": "Rust Wynwood",
      "address": "2621 NW 2nd Avenue, Space 28, Miami, FL 33127",
      "description": "A globally-inspired restaurant located inside a neighborhood gathering hotspot, Wynwood Block.",
      "phone": "(305) 576-6811",
      "website": "https://www.rustwynwood.com/",
      "cuisine": "American",
      "lat": 25.8017691,
      "long": -80.19891669999998
      
    },
    {
      "id": 24,
      "name": "The Lunchbox",
      "address": "78 NW 25th St, Miami, FL 33127",
      "description": "Funky, eco-friendly kitchen delivering an international menu in a relaxed, colorful environment.",
      "phone": "(305) 456-1677",
      "website": "http://www.thelunchboxcuisine.com/",
      "cuisine": "European",
      "lat": 25.800555,
      "long": -80.19646399999999
      
    },
    {
      "id": 25,
      "name": "Bar Louie",
      "address": "The Shops at Midtown Miami, 3201 N Miami Ave #210, Miami, FL 33127",
      "description": "Upbeat grill chain with American grub, martinis & microbrews, plus happy-hour deals.",
      "phone": "(786) 879-8260",
      "website": "http://www.barlouie.com/locations/states/florida/midtown-miami",
      "cuisine": "American",
      "lat": 25.8079854,
      "long": -80.19427719999999
      
    },
    {
      "id": 26,
      "name": "Ming Yuan Restaurant",
      "address": "3006 NW 2nd Ave, Miami, FL 33127",
      "description": "Casual eatery serving a lengthy menu of traditional Chinese dishes. Delivery is available.",
      "phone": "(305) 576-6466",
      "website": "",
      "cuisine": "Asian",
      "lat": 25.8050187,
      "long": -80.19936080000002
      
    },
    {
      "id": 27,
      "name": "The Lost and Found Saloon",
      "address": "185 NW 36th St, Miami, FL 33127",
      "description": "Compact Western-themed bar & cafe supplying craft beer plus Southwestern & Mexican fare until 3 AM.",
      "phone": "(305) 576-1008",
      "website": "http://thelostandfoundsaloonmiami.com/8393",
      "cuisine": "Latin",
      "lat": 25.8105168,
      "long": -80.19896819999997
      
    },
    {
      "id": 28,
      "name": "The Gang Miami",
      "address": "3500 N Miami Ave, Miami, FL 33127",
      "description": "Fueled by a creative spirit, this hip loftlike eatery serves inventive Asian-fusion fare with flair.",
      "phone": "(305) 570-9430",
      "website": "http://thegangmiami.com/",
      "cuisine": "Asian",
      "lat": 25.809799,
      "long": -80.19558269999999
      
    },
    {
      "id": 29,
      "name": "Novecento Midtown",
      "address": "The Shops at Midtown Miami, 3201 N Miami Ave #116, Miami, FL 33127",
      "description": "Bistro chain serving a menu of Argentinian dishes & Italian pastas, plus wine & cocktails.",
      "phone": "(305) 576-7447",
      "website": "http://www.novecento.com/index.php?option=com_ovacomposer&view=page&Itemid=136",
      "cuisine": "Latin",
      "lat": 25.807479,
      "long": -80.19431500000002
      
    },
    {
      "id": 30,
      "name": "El Bajareque",
      "address": "278 NW 36th St, Miami, FL 33127",
      "description": "Low-key, art-filled spot with counter & table seating dishing up Puerto Rican eats & daily specials.",
      "phone": "(305) 576-5170",
      "website": "http://www.elbajarequerestaurant.com/",
      "cuisine": "Latin",
      "lat": 25.8101167,
      "long": -80.200986
      
    }
  ]
}